{
"type": "FeatureCollection",
"name": "gis_cities_min",
"crs": { "type": "name", "properties": { "name": "urn:ogc:def:crs:OGC:1.3:CRS84" } },
"features": [
{ "type": "Feature", "properties": { "NAMN1": "Krāslava" }, "geometry": { "type": "Point", "coordinates": [ 27.171188500817014, 55.892341501185172, 0.0 ] } },
{ "type": "Feature", "properties": { "NAMN1": "Grobiņa" }, "geometry": { "type": "Point", "coordinates": [ 21.167751499810915, 56.537979000954472, 0.0 ] } },
{ "type": "Feature", "properties": { "NAMN1": "Dobele" }, "geometry": { "type": "Point", "coordinates": [ 23.281261500454768, 56.627582500739578, 0.0 ] } },
{ "type": "Feature", "properties": { "NAMN1": "Pļaviņas" }, "geometry": { "type": "Point", "coordinates": [ 25.742634000133805, 56.620612501113428, 0.0 ] } },
{ "type": "Feature", "properties": { "NAMN1": "Preiļi" }, "geometry": { "type": "Point", "coordinates": [ 26.725948499220053, 56.292923000768937, 0.0 ] } },
{ "type": "Feature", "properties": { "NAMN1": "Viļāni" }, "geometry": { "type": "Point", "coordinates": [ 26.931169500397743, 56.555961501288124, 0.0 ] } },
{ "type": "Feature", "properties": { "NAMN1": "Ludza" }, "geometry": { "type": "Point", "coordinates": [ 27.731001000253286, 56.534508000890348, 0.0 ] } },
{ "type": "Feature", "properties": { "NAMN1": "Priekule" }, "geometry": { "type": "Point", "coordinates": [ 21.591469000361926, 56.451603001187692, 0.0 ] } },
{ "type": "Feature", "properties": { "NAMN1": "Auce" }, "geometry": { "type": "Point", "coordinates": [ 22.897945500331492, 56.461467500700081, 0.0 ] } },
{ "type": "Feature", "properties": { "NAMN1": "Zilupe" }, "geometry": { "type": "Point", "coordinates": [ 28.122388999211449, 56.389496500933163, 0.0 ] } },
{ "type": "Feature", "properties": { "NAMN1": "Dagda" }, "geometry": { "type": "Point", "coordinates": [ 27.536957000373064, 56.09614950104293, 0.0 ] } },
{ "type": "Feature", "properties": { "NAMN1": "Viesīte" }, "geometry": { "type": "Point", "coordinates": [ 25.561254500150685, 56.343662500855039, 0.0 ] } },
{ "type": "Feature", "properties": { "NAMN1": "Ilūkste" }, "geometry": { "type": "Point", "coordinates": [ 26.296603999916663, 55.977119500978439, 0.0 ] } },
{ "type": "Feature", "properties": { "NAMN1": "Jēkabpils" }, "geometry": { "type": "Point", "coordinates": [ 25.879935999528769, 56.493351500536754, 0.0 ] } },
{ "type": "Feature", "properties": { "NAMN1": "Līvāni" }, "geometry": { "type": "Point", "coordinates": [ 26.172876499233833, 56.353634000722373, 0.0 ] } },
{ "type": "Feature", "properties": { "NAMN1": "Aknīste" }, "geometry": { "type": "Point", "coordinates": [ 25.754537499227165, 56.159614500449131, 0.0 ] } },
{ "type": "Feature", "properties": { "NAMN1": "Bauska" }, "geometry": { "type": "Point", "coordinates": [ 24.184568500070398, 56.405735000440394, 0.0 ] } },
{ "type": "Feature", "properties": { "NAMN1": "Varakļāni" }, "geometry": { "type": "Point", "coordinates": [ 26.767448500269822, 56.605060500693988, 0.0 ] } },
{ "type": "Feature", "properties": { "NAMN1": "Subate" }, "geometry": { "type": "Point", "coordinates": [ 25.910814500537295, 56.007026500632996, 0.0 ] } },
{ "type": "Feature", "properties": { "NAMN1": "Jaunjelgava" }, "geometry": { "type": "Point", "coordinates": [ 25.083919499914394, 56.607971000993324, 0.0 ] } },
{ "type": "Feature", "properties": { "NAMN1": "Aizkraukle" }, "geometry": { "type": "Point", "coordinates": [ 25.252550000086327, 56.608249500626151, 0.0 ] } },
{ "type": "Feature", "properties": { "NAMN1": "Valdemārpils" }, "geometry": { "type": "Point", "coordinates": [ 22.594806499601933, 57.370571000563146, 0.0 ] } },
{ "type": "Feature", "properties": { "NAMN1": "Strenči" }, "geometry": { "type": "Point", "coordinates": [ 25.685800499818484, 57.628483000929101, 0.0 ] } },
{ "type": "Feature", "properties": { "NAMN1": "Seda" }, "geometry": { "type": "Point", "coordinates": [ 25.756511500697492, 57.653412501144118, 0.0 ] } },
{ "type": "Feature", "properties": { "NAMN1": "Lubāna" }, "geometry": { "type": "Point", "coordinates": [ 26.720356000642003, 56.903049500908509, 0.0 ] } },
{ "type": "Feature", "properties": { "NAMN1": "Rūjiena" }, "geometry": { "type": "Point", "coordinates": [ 25.341114000094439, 57.894069500646644, 0.0 ] } },
{ "type": "Feature", "properties": { "NAMN1": "Stende" }, "geometry": { "type": "Point", "coordinates": [ 22.536297000746092, 57.143165501293389, 0.0 ] } },
{ "type": "Feature", "properties": { "NAMN1": "Sigulda" }, "geometry": { "type": "Point", "coordinates": [ 24.858997500310057, 57.150676500695027, 0.0 ] } },
{ "type": "Feature", "properties": { "NAMN1": "Smiltene" }, "geometry": { "type": "Point", "coordinates": [ 25.901410500232959, 57.422871000810211, 0.0 ] } },
{ "type": "Feature", "properties": { "NAMN1": "Aizpute" }, "geometry": { "type": "Point", "coordinates": [ 21.597818500123921, 56.719772500985343, 0.0 ] } },
{ "type": "Feature", "properties": { "NAMN1": "Baldone" }, "geometry": { "type": "Point", "coordinates": [ 24.398802000797481, 56.743381501004215, 0.0 ] } },
{ "type": "Feature", "properties": { "NAMN1": "Ķegums" }, "geometry": { "type": "Point", "coordinates": [ 24.72330649957965, 56.745552501138533, 0.0 ] } },
{ "type": "Feature", "properties": { "NAMN1": "Tukums" }, "geometry": { "type": "Point", "coordinates": [ 23.154338999903036, 56.968235001297522, 0.0 ] } },
{ "type": "Feature", "properties": { "NAMN1": "Alūksne" }, "geometry": { "type": "Point", "coordinates": [ 27.061535000408465, 57.42243200050369, 0.0 ] } },
{ "type": "Feature", "properties": { "NAMN1": "Salacgrīva" }, "geometry": { "type": "Point", "coordinates": [ 24.361091499438256, 57.747604500844247, 0.0 ] } },
{ "type": "Feature", "properties": { "NAMN1": "Aloja" }, "geometry": { "type": "Point", "coordinates": [ 24.885173999399353, 57.76575100049272, 0.0 ] } },
{ "type": "Feature", "properties": { "NAMN1": "Ventspils" }, "geometry": { "type": "Point", "coordinates": [ 21.579644999665785, 57.391319501261059, 0.0 ] } },
{ "type": "Feature", "properties": { "NAMN1": "Limbaži" }, "geometry": { "type": "Point", "coordinates": [ 24.707542500829966, 57.511127500723667, 0.0 ] } },
{ "type": "Feature", "properties": { "NAMN1": "Gulbene" }, "geometry": { "type": "Point", "coordinates": [ 26.752506499498438, 57.175384501246164, 0.0 ] } },
{ "type": "Feature", "properties": { "NAMN1": "Balvi" }, "geometry": { "type": "Point", "coordinates": [ 27.26565350012438, 57.132580000589215, 0.0 ] } },
{ "type": "Feature", "properties": { "NAMN1": "Ogre" }, "geometry": { "type": "Point", "coordinates": [ 24.611055500613737, 56.813255500956856, 0.0 ] } },
{ "type": "Feature", "properties": { "NAMN1": "Ikšķile" }, "geometry": { "type": "Point", "coordinates": [ 24.500179499730741, 56.829242500609226, 0.0 ] } },
{ "type": "Feature", "properties": { "NAMN1": "Kuldīga" }, "geometry": { "type": "Point", "coordinates": [ 21.971017999913197, 56.972255501171041, 0.0 ] } },
{ "type": "Feature", "properties": { "NAMN1": "Cesvaine" }, "geometry": { "type": "Point", "coordinates": [ 26.31266400009579, 56.967403500712763, 0.0 ] } },
{ "type": "Feature", "properties": { "NAMN1": "Viļaka" }, "geometry": { "type": "Point", "coordinates": [ 27.679395500667276, 57.181099000884089, 0.0 ] } },
{ "type": "Feature", "properties": { "NAMN1": "Kārsava" }, "geometry": { "type": "Point", "coordinates": [ 27.680639499784128, 56.783062001039113, 0.0 ] } },
{ "type": "Feature", "properties": { "NAMN1": "Valka" }, "geometry": { "type": "Point", "coordinates": [ 26.009708500582406, 57.776523500574434, 0.0 ] } },
{ "type": "Feature", "properties": { "NAMN1": "Valmiera" }, "geometry": { "type": "Point", "coordinates": [ 25.41400950029189, 57.53828450085868, 0.0 ] } },
{ "type": "Feature", "properties": { "NAMN1": "Staicele" }, "geometry": { "type": "Point", "coordinates": [ 24.760551499679419, 57.836590000931842, 0.0 ] } },
{ "type": "Feature", "properties": { "NAMN1": "Piltene" }, "geometry": { "type": "Point", "coordinates": [ 21.675476000336701, 57.227188000547471, 0.0 ] } },
{ "type": "Feature", "properties": { "NAMN1": "Talsi" }, "geometry": { "type": "Point", "coordinates": [ 22.588742500449261, 57.244076000663931, 0.0 ] } },
{ "type": "Feature", "properties": { "NAMN1": "Līgatne" }, "geometry": { "type": "Point", "coordinates": [ 25.040745000274509, 57.248478000419659, 0.0 ] } },
{ "type": "Feature", "properties": { "NAMN1": "Saulkrasti" }, "geometry": { "type": "Point", "coordinates": [ 24.418826999938293, 57.26638400125703, 0.0 ] } },
{ "type": "Feature", "properties": { "NAMN1": "Saldus" }, "geometry": { "type": "Point", "coordinates": [ 22.487915000606563, 56.664890500651175, 0.0 ] } },
{ "type": "Feature", "properties": { "NAMN1": "Salaspils" }, "geometry": { "type": "Point", "coordinates": [ 24.35774049980143, 56.859314000713006, 0.0 ] } },
{ "type": "Feature", "properties": { "NAMN1": "Madona" }, "geometry": { "type": "Point", "coordinates": [ 26.21127899929132, 56.850567001269383, 0.0 ] } },
{ "type": "Feature", "properties": { "NAMN1": "Baloži" }, "geometry": { "type": "Point", "coordinates": [ 24.122341000247676, 56.874538501039275, 0.0 ] } },
{ "type": "Feature", "properties": { "NAMN1": "Olaine" }, "geometry": { "type": "Point", "coordinates": [ 23.931457499524718, 56.794182000654146, 0.0 ] } },
{ "type": "Feature", "properties": { "NAMN1": "Kandava" }, "geometry": { "type": "Point", "coordinates": [ 22.776994499678885, 57.03680800073284, 0.0 ] } },
{ "type": "Feature", "properties": { "NAMN1": "Sabile" }, "geometry": { "type": "Point", "coordinates": [ 22.574250999943267, 57.047550000685519, 0.0 ] } },
{ "type": "Feature", "properties": { "NAMN1": "Cēsis" }, "geometry": { "type": "Point", "coordinates": [ 25.263725500601147, 57.309990000498885, 0.0 ] } },
{ "type": "Feature", "properties": { "NAMN1": "Skrunda" }, "geometry": { "type": "Point", "coordinates": [ 22.014499500828617, 56.674164000613288, 0.0 ] } },
{ "type": "Feature", "properties": { "NAMN1": "Brocēni" }, "geometry": { "type": "Point", "coordinates": [ 22.562375999251813, 56.690616500435617, 0.0 ] } },
{ "type": "Feature", "properties": { "NAMN1": "Ape" }, "geometry": { "type": "Point", "coordinates": [ 26.691671500270349, 57.539467000543453, 0.0 ] } },
{ "type": "Feature", "properties": { "NAMN1": "Ainaži" }, "geometry": { "type": "Point", "coordinates": [ 24.358629000807412, 57.861385500638931, 0.0 ] } },
{ "type": "Feature", "properties": { "NAMN1": "Mazsalaca" }, "geometry": { "type": "Point", "coordinates": [ 25.058016000517515, 57.862870001112469, 0.0 ] } },
{ "type": "Feature", "properties": { "NAMN1": "Lielvārde" }, "geometry": { "type": "Point", "coordinates": [ 24.805612500395945, 56.721481500595729, 0.0 ] } },
{ "type": "Feature", "properties": { "NAMN1": "Pāvilosta" }, "geometry": { "type": "Point", "coordinates": [ 21.192233999373506, 56.889121500624, 0.0 ] } },
{ "type": "Feature", "properties": { "NAMN1": "Vangaži" }, "geometry": { "type": "Point", "coordinates": [ 24.538749499444872, 57.091205500908892, 0.0 ] } },
{ "type": "Feature", "properties": { "NAMN1": "Liepāja" }, "geometry": { "type": "Point", "coordinates": [ 21.01945959813153, 56.535115850872629, 0.0 ] } },
{ "type": "Feature", "properties": { "NAMN1": "Jelgava" }, "geometry": { "type": "Point", "coordinates": [ 23.716267472526866, 56.643042946338461, 0.0 ] } },
{ "type": "Feature", "properties": { "NAMN1": "Jūrmala" }, "geometry": { "type": "Point", "coordinates": [ 23.696512573327905, 56.958566770246392, 0.0 ] } },
{ "type": "Feature", "properties": { "NAMN1": "Rīga" }, "geometry": { "type": "Point", "coordinates": [ 24.10432250074188, 56.946487500757435, 0.0 ] } },
{ "type": "Feature", "properties": { "NAMN1": "Daugavpils" }, "geometry": { "type": "Point", "coordinates": [ 26.519390000133829, 55.865749501094932, 0.0 ] } },
{ "type": "Feature", "properties": { "NAMN1": "Rēzekne" }, "geometry": { "type": "Point", "coordinates": [ 27.333131647717977, 56.508234611766731, 0.0 ] } },
{ "type": "Feature", "properties": { "NAMN1": "Durbe" }, "geometry": { "type": "Point", "coordinates": [ 21.367449476185097, 56.587383445035819, 0.0 ] } }
]
}
